{"update":{"brands":[{"title":"Memelis","icon":"memelis","homePage":"http://www.memelis.lt","country":"LT","description":"","id":"1298462812235","tags":[""]},{"title":"Avilys","icon":"avilys","homePage":"http://www.avilys.lt/","country":"LT","description":"","id":"1298469264837","tags":[""]},{"title":"Davra","icon":"davra","homePage":"http://www.davra.lt/","country":"LT","description":"","id":"1298468400664","tags":[""]},{"title":"Leffe","icon":"leffe","homePage":"http://www.leffe.be","country":"BE","description":"","id":"1298469264836","tags":[""]},{"title":"Not Sure","icon":"not_sure","homePage":"","country":"LT","hometown":"Vilnius","description":"","id":"1300352923282","tags":[""]},{"title":"Białystok Brewery","icon":"bialastok","homePage":"http://www.kp.pl/en/o_nas/browar_w_bialymstoku","country":"PL","description":"","id":"1298469264835","tags":[""]},{"title":"Alynas","icon":"alynas","homePage":"http://www.alynas.lt/","country":"LT","hometown":"Klaipėda","description":"","id":"1300352923283","tags":[""]},{"title":"Kalnapilis","icon":"kalnapilis","homePage":"http://www.kalnapilis.lt","country":"LT","description":"","id":"1298460438889","tags":[""]},{"title":"Gubernijos","icon":"gubernijos","homePage":"","country":"LT","description":"","id":"1298459294198","tags":[""]},{"title":"Šnekutis","icon":"snekutis","homePage":"http://www.alutis.lt/snekutis/","country":"LT","description":"","id":"1298460438888","tags":[""]},{"title":"Bravaria","icon":"bravaria","homePage":"","country":"LT","description":"","id":"1298455423280","tags":[""]},{"title":"Lobkowicz","icon":"","homePage":"","country":"CZ","hometown":"","description":"","id":"1301935654478","tags":[""]},{"title":"Švyturys","icon":"svyturys","homePage":"http://www.svyturys.lt","country":"LT","hometown":"Klaipėda","description":"none","id":"1298412573792","tags":[""]},{"title":"Utenos","icon":"utenos","homePage":"http://www.utenosalus.lt/","country":"LT","description":"","id":"1298468222478","tags":[""]},{"title":"Kozel","icon":"kozel","homePage":"http://www.kozel.cz","country":"CZ","description":"","id":"1298461966693","tags":[""]},{"title":"Kupiškio Alus","icon":"kupiskio_alus","homePage":"","country":"LT","description":"","id":"1298573744976","tags":[""]},{"title":"Erdinger","icon":"erdinger","homePage":"http://www.erdinger.de","country":"DE","description":"","id":"1298458184071","tags":[""]},{"title":"Kauno Alus","icon":"kauno_alus","homePage":"http://www.kaunoalus.lt/ ","country":"LT","description":"","id":"1298458184070","tags":[""]},{"title":"Grimbergen","icon":"grimbergen","homePage":"http://www.grimbergenbier.be/","country":"BE","description":"","id":"1298459122255","tags":[""]},{"title":"Dundulio","icon":"dundulio","homePage":"","country":"LT","description":"","id":"1298457764539","tags":[""]},{"title":"Veltins","icon":"veltins","homePage":"http://www.veltins.de","country":"DE","description":"","id":"1298468409249","tags":[""]},{"title":"Chodovar","icon":"chodovar","homePage":"http://www.chodovar.cz/","country":"CZ","description":"","id":"1298457764537","tags":[""]},{"title":"Daujotų","icon":"daujotu","homePage":"","country":"LT","description":"","id":"1298457764538","tags":[""]},{"title":"Franziskaner","icon":"franziskaner","homePage":"http://www.franziskaner.com/","country":"DE","description":"","id":"1298458459951","tags":[""]},{"title":"Bernard","icon":"bernard","homePage":"http://www.bernard.cz/","country":"CZ","description":"","id":"1298454754870","tags":[""]},{"title":"Biržų","icon":"birzu","homePage":"","country":"LT","description":"","id":"1298454754871","tags":[""]},{"title":"Hoegaarden","icon":"hoegaarden","homePage":"http://www.hoegaarden.com","country":"BE","description":"","id":"1298459989652","tags":[""]},{"title":"Čižo","icon":"cizo","homePage":"http://www.cizoalus.lt","country":"LT","description":"","id":"1299076781545","tags":[""]},{"title":"A. Grigonio","icon":"grigonio","homePage":"http://tikrasalus.lt/tag/a-grigonio/ ","country":"LT","description":"","id":"1298466191592","tags":[""]},{"title":"Carlsberg","icon":"carlsberg","homePage":"http://www.carlsberg.com","country":"DK","description":"","id":"1298457352612","tags":[]},{"title":"Taruškų Alaus Bravoras","icon":"tarusku","homePage":"","country":"LT","description":"","id":"1298460821095","tags":[""]},{"title":"Guinness","icon":"guinness","homePage":"http://www.guinness.com","country":"IE","hometown":"","description":"","id":"1298413279048","tags":["dark","foreign"]},{"title":"Butautų","icon":"butautu","homePage":"","country":"LT","description":"","id":"1298457129768","tags":[""]},{"title":"Tores","icon":"tores","homePage":"http://www.tores.lt","country":"LT","description":"","id":"1298467933277","tags":[""]},{"title":"Warsteiner","icon":"warsteiner","homePage":"http://www.warsteiner.de/","country":"DE","description":"","id":"1298468992556","tags":[""]},{"title":"Tucher","icon":"tucher","homePage":"http://www.tucher.de","country":"DE","description":"","id":"1298467933278","tags":[""]},{"title":"Ragutis","icon":"ragutis","homePage":"http://www.ragutis.lt","country":"LT","description":"","id":"1298468992555","tags":[""]},{"title":"Tauras","icon":"tauras","homePage":"http://www.tauroalus.lt","country":"LT","description":"","id":"1298467933276","tags":[""]},{"title":"Piniavos alutis","icon":"piniavos_alutis","homePage":"","country":"LT","description":"","id":"1298464103131","tags":[""]},{"title":"Būsi Trečias","icon":"busi_trecias","homePage":"","country":"LT","description":"","id":"1298456628786","tags":[""]},{"title":"Heineken","icon":"heineken","homePage":"http://www.heineken.com","country":"NL","description":"","id":"1298459523772","tags":[""]},{"title":"HBH","icon":"hbh","homePage":"","country":"LT","description":"","id":"1298459523771","tags":[""]},{"title":"Stella Artois","icon":"stella_artois","homePage":"http://www.stellaartois.com/","country":"BE","description":"","id":"1298466598917","tags":[""]},{"title":"Staropramen","icon":"staropramen","homePage":"http://www.staropramen.com","country":"CZ","description":"","id":"1298465958798","tags":[""]},{"title":"Krušovice","icon":"krusovice","homePage":"http://www.krusovice.cz/","country":"CZ","description":"","id":"1298462222793","tags":[""]},{"title":"Budějovický Měšťanský Pivovar","icon":"budweiser1795","homePage":"http://www.budweiser1795.com/ ","country":"CZ","description":"","id":"1298465958797","tags":[""]},{"title":"Kronenbourg 1664","icon":"kronenbourg","homePage":"http://www.k1664.com/","country":"FR","description":"","id":"1298462222792","tags":[""]},{"title":"Ponoras","icon":"ponoras","homePage":"http://www.ponoras.com/","country":"LT","hometown":"Biržai","description":"","id":"1300353237844","tags":[""]},{"title":"Rinkuškiai","icon":"rinkuskiai","homePage":"http://www.rinkuskiai.lt/ ","country":"LT","description":"","id":"1298464267083","tags":[""]},{"title":"Prie Katedros","icon":"prie_katedros","homePage":"http://www.priekatedros.lt ","country":"LT","description":"","id":"1298461109242","tags":[""]},{"title":"Bačkorių","icon":"backoriu","homePage":"","country":"LT","description":"","id":"1298454383016","tags":[""]},{"title":"Pilies","icon":"pilies","homePage":"","country":"LT","description":"","id":"1298463390706","tags":[""]},{"title":"Murphys","icon":"murphys","homePage":"http://www.murphys.com/","country":"IE","description":"","id":"1298463390704","tags":[""]},{"title":"Newcastle Brown Ale","icon":"new_castle_brown_ale","homePage":"http://newcastlebrown.com/","country":"UK","description":"","id":"1298463390705","tags":[""]},{"title":"Vilkmergės Alus","icon":"vilkmergės_alus","homePage":"http://www.vilkmergesalus.lt/","country":"LT","description":"","id":"1298468640960","tags":[""]},{"title":"Belmonto","icon":"belmonto","homePage":"","country":"LT","description":"","id":"1298454557038","tags":[""]},{"title":"Vilniaus alus","icon":"vilniaus_alus","homePage":"http://www.vilniausalus.lt ","country":"LT","description":"","id":"1298468640961","tags":[""]},{"title":"Pogo","icon":"pogo","homePage":"http://www.pogobaras.lt","country":"LT","description":"","id":"1298463963495","tags":[""]}],"pubs":[{"title":"Keisti ženklai","longitude":25.2813502,"latitude":54.6803049,"country":"","city":"Vilnius","address":"Trakų g. 13","phone":"8 52 610779","homepage":"","beerIds":["1298462812235"],"id":"1298412463930","tags":[]},{"title":"Portobello","longitude":25.2882045,"latitude":54.6764408,"country":"LT","city":"Vilnius","address":"Aušros vartų g. 7","phone":"8 52 121646","homepage":"http://www.facebook.com/pages/Portobello/128496187172890","beerIds":["1298466598918","1298412573793","1298467214231","1298558376245","1298459989652","1298413279048","1298459294199"],"id":"1299399186159","tags":[]},{"title":"Bernelių smuklė","longitude":23.9232703,"latitude":54.8986509,"country":"","city":"Kaunas","address":"K. Donelaičio str. 11","phone":"8 686 57449","homepage":"http://www.berneliusmukle.lt","beerIds":["1298468992555","1298468640960","1298460438889","1298460821095"],"id":"1298412463882","tags":[]},{"title":"Abato menė","longitude":23.8901613,"latitude":54.8965696,"country":"","city":"Kaunas","address":"Vilniaus g. 7","phone":"8 679 93033","homepage":"http://www.facebook.com/pages/Abato-mene/123093944388415","beerIds":["1298459122256","1298459989652","1298459294199"],"id":"1298412463883","tags":[]},{"title":"Viskio baras \"W 1640\"","longitude":23.895761,"latitude":54.8958201,"country":"LT","city":"Kaunas","address":"Kurpiu 29","phone":"+37065753440","homepage":"http://www.viskiobaras.lt/","beerIds":["1298463390705","1298459989652"],"id":"1300353421053","tags":[]},{"title":"Žalias ratas","longitude":23.9177966,"latitude":54.8971898,"country":"","city":"Kaunas","address":"Laisvės al. 36B","phone":"8 37 200071","homepage":"http://www.zaliasratas.lt","beerIds":["1298467214231","1298459294199"],"id":"1298412463881","tags":[]},{"title":"HBH Juozo Alus","longitude":21.150742,"latitude":55.974567,"country":"","city":"Kretinga","address":"Žibininkai","phone":"8 445 44678","homepage":"http://www.hbhjuozas.lt/","beerIds":["1298459523771"],"id":"1298412463888","tags":[]},{"title":"Wall Street","longitude":25.2802079,"latitude":54.6955893,"country":"","city":"Vilnius","address":"Lvovo g. 25","phone":"8 52 195916","homepage":"http://www.wallst.lt/","beerIds":["1298468992556","1298459523772","1298459989652","1298461966693"],"id":"1298412463929","tags":[]},{"title":"Baras 1925","longitude":21.0648979,"latitude":55.9165657,"country":"","city":"Palanga","address":"J. Basanavičiaus g. 4","phone":"8 460 52526","homepage":"http://www.baras1925.lt/","beerIds":["1298467214231","1298460438889","1298461966693"],"id":"1298412463889","tags":[]},{"title":"Memelis","longitude":21.1313655,"latitude":55.7087002,"country":"","city":"Klaipėda","address":"Žvejų g. 4","phone":" 8 46 403041","homepage":"http://www.memelis.lt","beerIds":["1298462812236","1298462812237","1298462812238","1298462812239"],"id":"1298412463886","tags":[]},{"title":"Prie Katedros","longitude":25.2832854,"latitude":54.6864964,"country":"","city":"Vilnius","address":"Gedimino pr. 5","phone":"8 605 77555","homepage":"http://www.priekatedros.lt/Bravoras_Prie_Katedros/Prie_Katedros.html","beerIds":["1298461109242","1298461109243","1298461109244"],"id":"1298412463928","tags":[]},{"title":"Bermudai","longitude":25.2691852,"latitude":54.6961061,"country":"","city":"Vilnius","address":"Upes 6","phone":"8 655 70262","homepage":"http://www.bermudaiclub.lt/","beerIds":["1298464267083","1298457764541","1298468640962","1298460438888","1298468640963"],"id":"1298412463927","tags":[]},{"title":"Haemmerli","longitude":21.14999,"latitude":55.695725,"country":"","city":"Klaipėda","address":"Didžioji vandens g. 13/Galinė g. 16","phone":"8 46 311209","homepage":"http://haemmerli.meniu.lt/","beerIds":["1298468640961"],"id":"1298412463887","tags":[]},{"title":"Shamrock","longitude":23.8897413,"latitude":54.8966339,"country":"","city":"Kaunas","address":"Vilniaus g. 13","phone":"8 641 54100","homepage":"http://www.shamrock.lt","beerIds":["1298412573793","1298467214231","1298459122256","1298454754873","1298454754872","1298459294199"],"id":"1298412463884","tags":[]},{"title":"Chillout baras","longitude":25.2771523,"latitude":54.6842615,"country":"","city":"Vilnius","address":"Pylimo g. 8/2","phone":"","homepage":"http://www.facebook.com/pages/Chillout-baras/103914669678344?v\u003dinfo","beerIds":["1298464103132"],"id":"1298412463926","tags":[]},{"title":"Savas kampas","longitude":25.2860236,"latitude":54.678471,"country":"","city":"Vilnius","address":"Vokiečių g. 4","phone":"8 52 123203","homepage":"http://www.savaskampas.lt/","beerIds":["1298469579002","1298469264835","1298459523772","1298458459951"],"id":"1298412463925","tags":[]},{"title":"Juodojo Katino smuklė","longitude":21.131396,"latitude":55.708564,"country":"","city":"Klaipėda","address":"Žvejų g. 21/Teatro g. 1","phone":"8 46 411167","homepage":"http://www.kbr.lt/","beerIds":["1298412573793","1298467214231","1298457635065","1298413279048"],"id":"1298412463885","tags":[]},{"title":"Terrazza","longitude":25.2672398,"latitude":54.6981917,"country":"","city":"Vilnius","address":"Konstitucijos pr. 26","phone":"+37068790719","homepage":"http://www.terrazza.lt","beerIds":["1298468992556"],"id":"1298572132635","tags":[]},{"title":"Pianoman","longitude":25.2787747,"latitude":54.6839635,"country":"","city":"Vilnius","address":"Islandijos g. 1","phone":"+37065096925","homepage":"http://www.facebook.com/pages/Piano-Man-bar/165700010117626?v\u003dinfo","beerIds":["1298573281777","1298466598918","1298467933278","1298469264836","1298459989652","1298413279048"],"id":"1298572132631","tags":[]},{"title":"Gyvas","longitude":23.8924264,"latitude":54.8968721,"country":"LT","city":"Kaunas","address":"Muitinės g. 1/Rotušės 6a","phone":"","homepage":"http://www.facebook.com/pages/Gyvas-alaus-pubas-krautuv%C4%97l%C4%97/139925489401626?v\u003dwall","beerIds":["1298573744976","1298573744977","1298573473092","1298457764540","1298468640962","1298468409249"],"id":"1298572132634","tags":[]},{"title":"Avilys","longitude":23.893033,"latitude":54.8964901,"country":"LT","city":"Kaunas","address":"Vilniaus g. 34","phone":"8 699 66239","homepage":"http://www.avilys.lt","beerIds":["1298469264838","1298469264837"],"id":"1298412463870","tags":[]},{"title":"Baras 91","longitude":23.9655301,"latitude":54.9344564,"country":"LT","city":"Kaunas","address":"Islandijos pl. 91","phone":"8 37 311591","homepage":"http://www.facebook.com/pages/Baras-91/102766274339","beerIds":["1298412573793","1298457635065","1298459122256","1298413279048","1298467039549","1298459294199"],"id":"1298412463871","tags":[]},{"title":"B.O. (BlueOrange)","longitude":23.8893676,"latitude":54.8955624,"country":"","city":"Kaunas","address":"Muitinės 9","phone":"8 37 206542","homepage":"http://www.blueorange.lt","beerIds":["1298412573793","1298464267083","1298465971008","1298468222478","1298459523772","1298460438889","1298462222794","1298461966693","1298467039549","1298467933279"],"id":"1298412463872","tags":[]},{"title":"Sadutė","longitude":23.8874186,"latitude":54.896473,"country":"","city":"Kaunas","address":"Rotušės a. 4","phone":"8 685 08662","homepage":"http://www.sadute.lt/","beerIds":["1298412573793","1298468992555","1298467214231","1298466191592","1298466191593"],"id":"1298412463877","tags":[]},{"title":"Bravaria","longitude":25.263405,"latitude":54.710144,"country":"","city":"Vilnius","address":"Ozo g. 25","phone":"  8 652 21121","homepage":"http://www.bravaria.lt/","beerIds":["1298455423281"],"id":"1298412463902","tags":[]},{"title":"Jums","longitude":23.9126351,"latitude":54.8974158,"country":"","city":"Kaunas","address":"Laisvės al. 61","phone":"8 686 38262","homepage":"","beerIds":["1298468992555","1298459523772"],"id":"1298412463878","tags":[]},{"title":"PoGo Baras","longitude":25.2795064,"latitude":54.6859567,"country":"","city":"Vilnius","address":"Vilniaus g. 12","phone":"8 662 59613","homepage":"http://www.pogobaras.lt","beerIds":["1298465971008","1298468640962","1298459523772","1298468409249","1298463963495"],"id":"1298412463901","tags":[]},{"title":"Bobo Nouveau","longitude":25.2818101,"latitude":54.680379,"country":"","city":"Vilnius","address":"Trakų g. 15","phone":"8 677 77335","homepage":"http://www.bobo.lt/","beerIds":["1298466598918","1298463390704","1298469264836","1298558376245","1298459989652"],"id":"1298412463900","tags":[]},{"title":"Bravaria","longitude":23.9163126,"latitude":54.8927722,"country":"","city":"Kaunas","address":"Karaliaus Mindaugo g. 47","phone":"8 699 92462","homepage":"http://www.bravaria.lt/","beerIds":["1298455423281"],"id":"1298412463873","tags":[]},{"title":"Grizzly Grill","longitude":23.9710759,"latitude":54.9279797,"country":"","city":"Kaunas","address":"Savanorių pr. 439/Šiaurės pr. 3A","phone":"+37037249337","homepage":"http://grizzlygrill.lt","beerIds":["1298459122256","1299076900891","1298459294199"],"id":"1299076781545","tags":[]},{"title":"Skliautas","longitude":23.8869994,"latitude":54.8972258,"country":"","city":"Kaunas","address":"Rotušės aikštė 26","phone":"8 37 206843","homepage":"http://www.skliautas.com","beerIds":["1298412573793","1298467214231","1298459122256","1298467039549","1298459294199"],"id":"1298412463874","tags":[]},{"title":"Entry","longitude":23.909281,"latitude":54.895815,"country":"LT","city":"Kaunas","address":"Kęstučio g. 71","phone":"+37037225430","homepage":"http://www.entry.lt/","beerIds":["1298412573793","1298467214231","1298457635065","1298462222793","1298459122256"],"id":"1300871783651","tags":[]},{"title":"Suflerio būdelė","longitude":23.8914108,"latitude":54.8980329,"country":"","city":"Kaunas","address":"M. Daukšos g. 34","phone":"8 676 36928","homepage":"http://www.facebook.com/profile.php?id\u003d1184255123","beerIds":["1298468992555","1298465971008","1298458184071"],"id":"1298412463875","tags":[]},{"title":"Džem\u0027pub","longitude":23.9138872,"latitude":54.897368,"country":"","city":"Kaunas","address":"Laisvės al. 59","phone":"8 657 45003","homepage":"http://www.dzempub.lt/","beerIds":["1298468992555","1298461109244","1298459523772","1298457764539","1298460821095"],"id":"1298412463876","tags":[]},{"title":"Cactus","longitude":25.2903254,"latitude":54.6805646,"country":"","city":"Vilnius","address":"Bokšto 7","phone":"8 601 12555","homepage":"http://www.cactusbar.lt/","beerIds":["1298413279048","1298468409249"],"id":"1298412463912","tags":[]},{"title":"Šimo baras","longitude":25.229244,"latitude":54.716094,"country":"","city":"Vilnius","address":"Laisvės pr. 88","phone":"8 52 752832","homepage":"","beerIds":["1298458184071","1298462222794"],"id":"1298412463913","tags":[]},{"title":"Pilies menė","longitude":25.2894708,"latitude":54.6840313,"country":"","city":"Vilnius","address":"Pilies g. 8","phone":"8 52 612552","homepage":"http://piliesmene.meniu.lt","beerIds":["1298412573793","1298467214231","1298463390706","1298458184070","1298468222478","1298460438889"],"id":"1298412463911","tags":[]},{"title":"Jalta","longitude":25.2516716,"latitude":54.6892177,"country":"","city":"Vilnius","address":"Vykinto g. 17a","phone":"8 650 12114","homepage":"http://www.facebook.com/group.php?gid\u003d77247649677\u0026ref\u003dsearch","beerIds":["1298467214231","1298459122256"],"id":"1298412463906","tags":[]},{"title":"Domininkonų karčiama","longitude":25.2843802,"latitude":54.6811882,"country":"","city":"Vilnius","address":"Domininkonų g. 6","phone":"8 600 01977","homepage":"http://www.priekatedros.lt/Bravoras_Prie_Katedros/Karcema.html","beerIds":["1298461109242","1298461109243","1298461109244"],"id":"1298412463905","tags":[]},{"title":"Būsi trečias","longitude":25.2823112,"latitude":54.6845751,"country":"","city":"Vilnius","address":"Totorių g. 18.","phone":"8 52 312698","homepage":"http://www.busitrecias.lt/","beerIds":["1298412573793","1298458184071","1298460438889","1298457129768"],"id":"1298412463904","tags":[]},{"title":"Bunte Gans","longitude":25.2882825,"latitude":54.6762947,"country":"","city":"Vilnius","address":"Aušros Vartų g. 11","phone":"8 52 128312 ","homepage":"http://www.buntegans.lt/","beerIds":["1298468992556","1298468409250"],"id":"1298412463903","tags":[]},{"title":"Plieno paukštis","longitude":25.2724954,"latitude":54.6826155,"country":"","city":"Vilnius","address":"K. Kalinausko 11","phone":"8 52 312181","homepage":"","beerIds":["1298468992556","1298465971008","1298458184071"],"id":"1298412463909","tags":[]},{"title":"Gringo","longitude":25.2777866,"latitude":54.6818875,"country":"LT","city":"Vilnius","address":"Klaipėdos g. 3","phone":"+37065096925","homepage":"http://www.facebook.com/pages/Gringo-pub/114677415239537","beerIds":["1298466598918","1298467933278","1298413279048"],"id":"1298564989990","tags":[]},{"title":"Leika","longitude":21.1341609,"latitude":55.7079424,"country":"LT","city":"Klaipėda","address":"Tomo g.7","phone":"+370 601 89179","homepage":"http://www.facebook.com/pages/Baras-Leika/158143514204388","beerIds":["1301935654478","1298573744976","1298454754871","1298624622841","1298573473092","1298460821095","1298624622842"],"id":"1300352297382","tags":[]},{"title":"Obuolio aludė","longitude":25.2775397,"latitude":54.6938689,"country":"","city":"Vilnius","address":"Šnipiškių g. 3","phone":"8 52 724234","homepage":"http://www.applepub.lt/","beerIds":["1298458184071","1298466366568","1298469264836","1298460438889","1298460821095","1298413279048","1298454754873","1298457764538","1298467933278","1298468640962","1298468409250","1298459989652","1298461966693"],"id":"1298412463920","tags":[]},{"title":"Mamutas","longitude":25.2551304,"latitude":54.6774303,"country":"","city":"Vilnius","address":"Savanorių 16 ","phone":"8 52 331131","homepage":"","beerIds":["1298457129769","1298467214231","1298467933276","1298462812235","1298460438889","1298467039549"],"id":"1298412463921","tags":[]},{"title":"Dolce-Vita","longitude":25.2807925,"latitude":54.6794895,"country":"","city":"Vilnius","address":"Trakų g. 11/Pranciškonų g. 2","phone":"8 52 312444","homepage":"http://www.dolce-vita.lt/","beerIds":["1298458184071","1298454754871"],"id":"1298412463922","tags":[]},{"title":"Alynas","longitude":21.1766458,"latitude":55.6623161,"country":"LT","city":"Klaipėda","address":"Taikos prospektas 141","phone":"","homepage":"http://www.alynas.lt/","beerIds":["1300352297382","1298458184071","1298573744977","1300352923284","1298573473092","1298469264836","1300352923282","1300352923283","1300353237845","1298458459951","1300353237844","1298464103132","1298454754871","1298624622841","1298573285301","1298459523772"],"id":"1300352297384","tags":[]},{"title":"La Dolce Vita","longitude":21.1304105,"latitude":55.7135792,"country":"LT","city":"Klaipėda","address":"H. Manto gatvė 8","phone":"8 46 212198","homepage":"http://ladolcevita.lt/","beerIds":["1298459294199"],"id":"1300352297383","tags":[]},{"title":"Alaus studija","longitude":25.2958828,"latitude":54.7076179,"country":"","city":"Vilnius","address":"S. Žukausko 20","phone":"8 685 60885","homepage":"http://alausstudija.lt/","beerIds":["1298458184071","1298462222793","1298558376245","1298413279048","1298466598918","1298465971008","1298454754871","1298624622841","1298463390704","1298463390705","1298624622840","1298573285301","1298459523772","1298624622844","1298468409250","1298462222794","1298459989652","1298624622842"],"id":"1298412463924","tags":[]},{"title":"Alaus krautuvėlė","longitude":23.8913371,"latitude":54.8976653,"country":"LT","city":"Kaunas","address":"M. Daukšos g. 29 - 9","phone":"+37061635591","homepage":"http://www.alauskrautuvele.lt/","beerIds":["1298464103132","1300352297382","1298457129769","1298573744976","1300352923282","1298457764541","1300352923283","1298460821095","1298454754872","1298457764538","1298457129768","1300353237844"],"id":"1301595464872","tags":[]},{"title":"Pajūrio žibintas","longitude":21.0566831,"latitude":55.9188841,"country":"","city":"Palanga","address":"J. Basanavičiaus g. 36","phone":"8 698 84099","homepage":"","beerIds":["1298454754871"],"id":"1298412463890","tags":[]},{"title":"Palangos vėtra","longitude":21.087847,"latitude":55.925867,"country":"","city":"Palanga","address":"Daukanto g. 35 / S. Dariaus ir S. Girėno g. 17","phone":"8 460 49490","homepage":"http://www.palangosvetra.lt/","beerIds":["1298413279048"],"id":"1298412463891","tags":[]},{"title":"16/19","longitude":21.079202,"latitude":56.032271,"country":"","city":"Šventoji","address":"Kopų g. 16","phone":"","homepage":"","beerIds":["1298467214231","1298462812236","1298467039549"],"id":"1298412463892","tags":[]},{"title":"Livonija","longitude":21.1303142,"latitude":55.7112514,"country":"","city":"Klaipėda","address":"Naujojo sodo g. 1","phone":"8 46 228822","homepage":"","beerIds":["1298457129769"],"id":"1298412463893","tags":[]},{"title":"Sindbado oazė","longitude":21.1361209,"latitude":55.7082946,"country":"","city":"Klaipėda","address":"Didžioji Vandens g. 20","phone":"8 46 211786","homepage":"","beerIds":["1298461966693"],"id":"1298412463894","tags":[]},{"title":"Alaus namai","longitude":25.270084,"latitude":54.6932528,"country":"","city":"Vilnius","address":"A. Goštauto g. 8","phone":"8 52 60 9637","homepage":"http://www.alausnamai.lt/","beerIds":["1298464103132","1298464267083","1298454383016","1298459294200","1298457764540","1298457764541","1298468640961","1298468640963","1298468409249","1298454754873"],"id":"1298412463895","tags":[]},{"title":"Molinis Ąsotis","longitude":25.2694839,"latitude":54.6747256,"country":"","city":"Vilnius","address":"Naugarduko g. 32","phone":"8 52 333073","homepage":"","beerIds":["1298467214231","1298467039549"],"id":"1298412463915","tags":[]},{"title":"Alaus baras (Pylimo)","longitude":25.2862764,"latitude":54.6729071,"country":"","city":"Vilnius","address":" Pylimo g. 60","phone":"8 682 38097","homepage":"","beerIds":["1298468409249"],"id":"1298412463914","tags":[]},{"title":"Alaus baras (Justiniškės)","longitude":25.2216737,"latitude":54.7171368,"country":"","city":"Vilnius","address":"Justiniškių g. 91","phone":"8 52 422480","homepage":"","beerIds":["1298467214231","1298468222478"],"id":"1298412463896","tags":[]},{"title":"Tores","longitude":25.2979667,"latitude":54.6809148,"country":"","city":"Vilnius","address":"Užupio g. 40","phone":"8 655 32626","homepage":"http://www.tores.lt/","beerIds":["1298467933277"],"id":"1298412463917","tags":[]},{"title":"Blusynė","longitude":25.2886435,"latitude":54.6792624,"country":"","city":"Vilnius","address":"Savičiaus g. 5-1","phone":"8 52 122012","homepage":"http://www.blusyne.lt/","beerIds":["1298465971008","1298462222794"],"id":"1298412463897","tags":[]},{"title":"B6","longitude":25.2859476,"latitude":54.6741394,"country":"","city":"Vilnius","address":"Bazilijonų g. 6","phone":"8 603 29332","homepage":"","beerIds":["1298467214231","1298454754873"],"id":"1298412463916","tags":[]},{"title":"Belmontas","longitude":25.3572492,"latitude":54.6852651,"country":"","city":"Vilnius","address":"Belmonto g.17","phone":"8 686 14656","homepage":"http://www.belmontas.lt/","beerIds":["1298454754870","1298454557038"],"id":"1298412463898","tags":[]},{"title":"Užupio picerija","longitude":25.2958167,"latitude":54.6800877,"country":"","city":"Vilnius","address":"Paupio g. 3","phone":"8 52 153666","homepage":"","beerIds":["1298412573793","1298467214231"],"id":"1298412463919","tags":[]},{"title":"Burito","longitude":25.2561,"latitude":54.6903759,"country":"","city":"Vilnius","address":"A. Mickevičiaus g. 2a","phone":"8 617 66268","homepage":"","beerIds":["1298466366568"],"id":"1298412463899","tags":[]}],"beers":[{"title":"Švyturys Ekstra","brandId":"1298412573792","icon":"svyturys_ekstra","description":"","id":"1298467214231","tags":["lager"]},{"title":"Medaus pusšviesis","brandId":"1298469264837","icon":"medaus_pussviesis","description":"","id":"1298469264838","tags":["rural"]},{"title":"Kunigaikščių","brandId":"1298459294198","icon":"kunigaiksciu","description":"","id":"1298462812235","tags":["strong","rural"]},{"title":"Alyno šviesusis","brandId":"1300352923283","icon":"alyno_sviesusis","description":"","id":"1300352923284","tags":["rural"]},{"title":"Avilio šviesusis","brandId":"1298469264837","icon":"avilio_sviesusis","description":"","id":"1298469264837","tags":["rural"]},{"title":"Staropramen","brandId":"1298465958798","icon":"staropramen","description":"","id":"1298466366568","tags":["lager","foreign"]},{"title":"Memelio Šviesusis Gyvasis","brandId":"1298462812235","icon":"memelis_sviesus","description":"","id":"1298462812236","tags":["lager","rural"]},{"title":"Leffe","brandId":"1298469264836","icon":"leffe","description":"","id":"1298469264836","tags":["strong","white","foreign"]},{"title":"Memelio Karamelinis Vyšnių","brandId":"1298462812235","icon":"memelis_karamelinis","description":"","id":"1298462812237","tags":["rural"]},{"title":"Lokio Žemaitiškas","brandId":"1300352923282","icon":"lokio_zemaitiskas","description":"","id":"1300352923282","tags":["rural"]},{"title":"Zubr","brandId":"1298469264835","icon":"zubr","description":"","id":"1298469264835","tags":["lager","foreign"]},{"title":"Memelio Juodasis Degintas","brandId":"1298462812235","icon":"memelis_juodas","description":"","id":"1298462812238","tags":["dark","rural"]},{"title":"Daujotų","brandId":"1298457764538","icon":"daujotu","description":"","id":"1298457764540","tags":["rural"]},{"title":"Kauno tamsusis","brandId":"1298458184070","icon":"kauno_tamsusis","description":"","id":"1300352923283","tags":["dark"]},{"title":"Memelio Kvietinis Medaus","brandId":"1298462812235","icon":"memelis_kvietinis","description":"","id":"1298462812239","tags":["white","rural"]},{"title":"Dundulio","brandId":"1298457764539","icon":"dundulio","description":"","id":"1298457764541","tags":["rural"]},{"title":"Kalnapilis grand","brandId":"1298460438889","icon":"kalnapilis_grand","description":"","id":"1298460438889","tags":["lager"]},{"title":"Murphys Red","brandId":"1298463390704","icon":"murphys_red","description":"","id":"1298558376245","tags":["lager"]},{"title":"Jovarų šnekutis","brandId":"1298460438888","icon":"jovaru_snekutis","description":"","id":"1298460438888","tags":["lager","rural"]},{"title":"Bravaria","brandId":"1298455423280","icon":"bravaria","description":"","id":"1298455423281","tags":["lager"]},{"title":"Grimbergen Blond","brandId":"1298459122255","icon":"grimbergen_lager","description":"","id":"1298459294199","tags":["strong","foreign"]},{"title":"Švyturio baltas","brandId":"1298412573792","icon":"svyturys_baltas","description":"None","id":"1298412573793","tags":["white"]},{"title":"Lobkowicz Demon","brandId":"1301935654478","icon":"lobkowicz_demon","description":"","id":"1301935654478","tags":["lager","foreign"]},{"title":"Stella Artois","brandId":"1298466598917","icon":"stella_artois","description":"","id":"1298466598918","tags":["lager","foreign"]},{"title":"Bernard","brandId":"1298454754870","icon":"bernard","description":"","id":"1298624622841","tags":["lager"]},{"title":"Budweiser dark","brandId":"1298465958797","icon":"budweiser_dark","description":"","id":"1298624622840","tags":["dark"]},{"title":"Utenos","brandId":"1298468222478","icon":"utenos","description":"","id":"1298468222478","tags":["lager"]},{"title":"Budweiser","brandId":"1298465958797","icon":"budweiser","description":"","id":"1298573285301","tags":["lager"]},{"title":"Erdinger Dunkel","brandId":"1298458184071","icon":"erdinger_dunkel","description":"","id":"1298624622844","tags":["dark"]},{"title":"Veltins","brandId":"1298468409249","icon":"veltins","description":"What description","id":"1298468409250","tags":["lager"]},{"title":"Krušovice Černe","brandId":"1298462222793","icon":"krusovice_cerne","description":"","id":"1298624622842","tags":["dark"]},{"title":"Kozel","brandId":"1298461966693","icon":"kozel","description":"","id":"1298461966693","tags":["dark","rural"]},{"title":"Leffe Brune","brandId":"1298469264836","icon":"leffe_brune","description":"","id":"1298573281777","tags":["strong","dark"]},{"title":"Erdinger Wiessier","brandId":"1298458184071","icon":"erdinger","description":"","id":"1298458184071","tags":["white","foreign"]},{"title":"Kupiškėnų Šventinis","brandId":"1298573744976","icon":"kupiskenu_sventinis","description":"","id":"1298573744976","tags":["rural"]},{"title":"Salaus","brandId":"1298573744976","icon":"salaus","description":"","id":"1298573744977","tags":["rural"]},{"title":"Grimbergen Dubbel","brandId":"1298459122255","icon":"grimbergen","description":"","id":"1298459122256","tags":["strong","dark","foreign"]},{"title":"Ekstra Tvirtovės","brandId":"1298458184070","icon":"ekstra_tvirtoves","description":"","id":"1298458184070","tags":["strong","rural"]},{"title":"Chodovar tamsus","brandId":"1298457764537","icon":"chodovar_tamsus","description":"","id":"1298457764539","tags":["dark"]},{"title":"Varniukų tamsusis","brandId":"1298468400664","icon":"varniuku_alus","description":"Desc","id":"1298468409249","tags":["dark","rural"]},{"title":"Biržų Širvenos","brandId":"1298454754871","icon":"birzu_sirvenos","description":"","id":"1298454754873","tags":["lager","rural"]},{"title":"Chodovar","brandId":"1298457764537","icon":"chodovar","description":"","id":"1298457764538","tags":["lager"]},{"title":"Biržų miežinis","brandId":"1298454754871","icon":"birzu_miezinis","description":"","id":"1298454754872","tags":["rural"]},{"title":"Franziskaner","brandId":"1298458459951","icon":"franziskaner","description":"","id":"1298458459951","tags":["white","foreign"]},{"title":"Belmonto šviesusis","brandId":"1298454557038","icon":"belmonto_sviesusis","description":"","id":"1298454754870","tags":["lager","rural"]},{"title":"Gubernijos kvietinis","brandId":"1298459294198","icon":"gubernijos_kvietinis","description":"","id":"1298459294200","tags":["white"]},{"title":"Carlsberg","brandId":"1298457352612","icon":"carlsberg","description":"","id":"1298457635065","tags":["lager","foreign"]},{"title":"Bernard Černe","brandId":"1298454754870","icon":"bernard_cerne","description":"","id":"1298454754871","tags":["dark","foreign"]},{"title":"Hoegaarden","brandId":"1298459989652","icon":"hoegaarden","description":"","id":"1298459989652","tags":["white","foreign"]},{"title":"Šinkorių","brandId":"1298466191592","icon":"sinkoriu","description":"","id":"1298466191592","tags":["rural"]},{"title":"Šinkorių tamsusis","brandId":"1298466191592","icon":"sinkoriu_tamsus","description":"","id":"1298466191593","tags":["dark","rural"]},{"title":"Butautų dvaro","brandId":"1298457129768","icon":"butautu_dvaro","description":"","id":"1298457129769","tags":["dark","rural"]},{"title":"Velvet","brandId":"1298465958798","icon":"velvet","description":"","id":"1298469579002","tags":["foreign"]},{"title":"Kalnapilis","brandId":"1298460438889","icon":"kalnapilis","description":"","id":"1298573473092","tags":["lager"]},{"title":"Kanapinis tamsus","brandId":"1298460821095","icon":"kanapinis","description":"","id":"1298460821095","tags":["dark","rural"]},{"title":"Guinness","brandId":"1298413279048","icon":"guinness","description":"","id":"1298413279048","tags":["dark","foreign"]},{"title":"Tucher šviesus","brandId":"1298467933278","icon":"tucher_weis","description":"","id":"1298467933279","tags":["white","foreign"]},{"title":"Būsi Trečias","brandId":"1298456628786","icon":"busi_trecias","description":"","id":"1298457129768","tags":["dark","rural"]},{"title":"Tores gyvas nefiltruotas","brandId":"1298467933277","icon":"tores","description":"","id":"1298467933277","tags":["dark","rural"]},{"title":"Raudonųjų Dobilų","brandId":"1298464103131","icon":"raudonuju_dobilu","description":"","id":"1298464103132","tags":["dark","rural"]},{"title":"Warsteiner","brandId":"1298468992556","icon":"warsteiner","description":"","id":"1298468992556","tags":["lager","foreign"]},{"title":"Tucher","brandId":"1298467933278","icon":"tucher","description":"","id":"1298467933278","tags":["foreign"]},{"title":"Volf Engelman","brandId":"1298468992555","icon":"volf_engelman","description":"","id":"1298468992555","tags":["lager"]},{"title":"Samson","brandId":"1298465958797","icon":"samson","description":"","id":"1298465971008","tags":["dark","foreign"]},{"title":"Tauro Tradicinis","brandId":"1298467933276","icon":"tauro_tradicinis","description":"","id":"1298467933276","tags":["lager","strong"]},{"title":"Heineken","brandId":"1298459523772","icon":"heineken","description":"","id":"1298459523772","tags":["lager","foreign"]},{"title":"HBH Juozo alus","brandId":"1298459523771","icon":"hbh","description":"","id":"1298459523771","tags":["dark","rural"]},{"title":"Vilniaus tamsusis","brandId":"1298468640961","icon":"vilniaus_tamsusis","description":"","id":"1300352297382","tags":["dark"]},{"title":"Kronenbourg 1664","brandId":"1298462222792","icon":"kronenbourg_1664","description":"","id":"1298462222793","tags":["lager","foreign"]},{"title":"Čižo naminis tamsus","brandId":"1299076781545","icon":"cizo","description":"","id":"1299076900891","tags":["dark"]},{"title":"Kozel dark","brandId":"1298461966693","icon":"kozel_dark","description":"","id":"1300353237845","tags":["dark"]},{"title":"Ponoro kaimiškas","brandId":"1300353237844","icon":"ponoro_kaimisksa","description":"","id":"1300353237844","tags":["rural"]},{"title":"Rinkuškių proginis","brandId":"1298464267083","icon":"rinkuskiu_proginis","description":"","id":"1298464267083","tags":["lager","rural"]},{"title":"Katedros Medaus","brandId":"1298461109242","icon":"katedros_medaus","description":"","id":"1298461109242","tags":["lager","rural"]},{"title":"Bačkorių tamsusis","brandId":"1298454383016","icon":"backoriu_tamsusis","description":"","id":"1298454383016","tags":["dark","rural"]},{"title":"Pilies","brandId":"1298463390706","icon":"pilies","description":"","id":"1298463390706","tags":["lager"]},{"title":"Katedros Šviesusis","brandId":"1298461109242","icon":"katedros_sviesusis","description":"","id":"1298461109243","tags":["lager","rural"]},{"title":"Katedros Tamsusis","brandId":"1298461109242","icon":"katedros_tamsusis","description":"","id":"1298461109244","tags":["dark","rural"]},{"title":"Murphy\u0027s Stout","brandId":"1298463390704","icon":"murphys_stout","description":"","id":"1298463390704","tags":["dark","foreign"]},{"title":"Newcastle Brown Ale","brandId":"1298463390705","icon":"new_castle_brown_ale","description":"","id":"1298463390705","tags":["dark","foreign"]},{"title":"Vilkmergės","brandId":"1298468640960","icon":"vilkmerges","description":"","id":"1298468640960","tags":["rural"]},{"title":"Vilniaus kvietinis","brandId":"1298468640961","icon":"vilniaus_kvietinis","description":"","id":"1298468640962","tags":["white"]},{"title":"Belmonto ypatingasis","brandId":"1298454557038","icon":"belmonto_ypatingas","description":"","id":"1298454557038","tags":["dark","rural"]},{"title":"Vilkmergės tamsusis","brandId":"1298468640960","icon":"vilkmerges_tamsusis","description":"","id":"1298468640961","tags":["dark","rural"]},{"title":"Krušovice","brandId":"1298462222793","icon":"krusovice","description":"","id":"1298462222794","tags":["dark","foreign","light"]},{"title":"Vilniaus nefiltruotas","brandId":"1298468640961","icon":"vilniaus_nefiltruotas","description":"","id":"1298468640963","tags":["lager"]},{"title":"Švyturys Baltijos","brandId":"1298412573792","icon":"svyturys_baltijos","description":"","id":"1298467039549","tags":["strong","dark"]},{"title":"PoGO šviesusis","brandId":"1298463963495","icon":"pogo","description":"","id":"1298463963495","tags":["lager"]}]},"delete":{"brands":[],"pubs":[],"beers":[]}}